{
"type": "FeatureCollection",
"name": "vct_Station_NRW_S50",
"crs": { "type": "name", "properties": { "name": "urn:ogc:def:crs:OGC:1.3:CRS84" } },
"features": [
{ "type": "Feature", "properties": { "Stations_id": "3", "Stationsname": "Aachen", "Stationshoehe": 202.0, "Bundesland": "Nordrhein-Westfalen", "NiederschlagJahr": 837.4 }, "geometry": { "type": "Point", "coordinates": [ 6.094087, 50.782659 ] } },
{ "type": "Feature", "properties": { "Stations_id": "470", "Stationsname": "Beverungen", "Stationshoehe": 101.0, "Bundesland": "Nordrhein-Westfalen", "NiederschlagJahr": 799.0 }, "geometry": { "type": "Point", "coordinates": [ 9.375589, 51.670863 ] } },
{ "type": "Feature", "properties": { "Stations_id": "555", "Stationsname": "Bochum", "Stationshoehe": 110.0, "Bundesland": "Nordrhein-Westfalen", "NiederschlagJahr": 873.0 }, "geometry": { "type": "Point", "coordinates": [ 7.228914, 51.502642 ] } },
{ "type": "Feature", "properties": { "Stations_id": "717", "Stationsname": "Brilon", "Stationshoehe": 443.0, "Bundesland": "Nordrhein-Westfalen", "NiederschlagJahr": 1128.0 }, "geometry": { "type": "Point", "coordinates": [ 8.573713, 51.387293 ] } },
{ "type": "Feature", "properties": { "Stations_id": "989", "Stationsname": "Dinslaken", "Stationshoehe": 46.0, "Bundesland": "Nordrhein-Westfalen", "NiederschlagJahr": 842.3 }, "geometry": { "type": "Point", "coordinates": [ 6.784929, 51.576478 ] } },
{ "type": "Feature", "properties": { "Stations_id": "1078", "Stationsname": "Düsseldorf", "Stationshoehe": 36.6, "Bundesland": "Nordrhein-Westfalen", "NiederschlagJahr": 797.7 }, "geometry": { "type": "Point", "coordinates": [ 6.768626, 51.295968 ] } },
{ "type": "Feature", "properties": { "Stations_id": "1201", "Stationsname": "Elsdorf/Erftkreis", "Stationshoehe": 85.0, "Bundesland": "Nordrhein-Westfalen", "NiederschlagJahr": 712.8 }, "geometry": { "type": "Point", "coordinates": [ 6.564617, 50.928142 ] } },
{ "type": "Feature", "properties": { "Stations_id": "1238", "Stationsname": "Engelskirchen", "Stationshoehe": 144.0, "Bundesland": "Nordrhein-Westfalen", "NiederschlagJahr": 1240.4 }, "geometry": { "type": "Point", "coordinates": [ 7.424988, 50.988436 ] } },
{ "type": "Feature", "properties": { "Stations_id": "1277", "Stationsname": "Erkelenz", "Stationshoehe": 92.0, "Bundesland": "Nordrhein-Westfalen", "NiederschlagJahr": 780.0 }, "geometry": { "type": "Point", "coordinates": [ 6.327828, 51.071275 ] } },
{ "type": "Feature", "properties": { "Stations_id": "1791", "Stationsname": "Gronau", "Stationshoehe": 40.0, "Bundesland": "Nordrhein-Westfalen", "NiederschlagJahr": 858.8 }, "geometry": { "type": "Point", "coordinates": [ 7.026031, 52.204258 ] } },
{ "type": "Feature", "properties": { "Stations_id": "1962", "Stationsname": "Hallenberg", "Stationshoehe": 417.0, "Bundesland": "Nordrhein-Westfalen", "NiederschlagJahr": 915.7 }, "geometry": { "type": "Point", "coordinates": [ 8.627607, 51.112924 ] } },
{ "type": "Feature", "properties": { "Stations_id": "1965", "Stationsname": "Haltern", "Stationshoehe": 40.0, "Bundesland": "Nordrhein-Westfalen", "NiederschlagJahr": 853.4 }, "geometry": { "type": "Point", "coordinates": [ 7.204819, 51.73475 ] } },
{ "type": "Feature", "properties": { "Stations_id": "2098", "Stationsname": "Heiligenhaus", "Stationshoehe": 127.0, "Bundesland": "Nordrhein-Westfalen", "NiederschlagJahr": 1000.0 }, "geometry": { "type": "Point", "coordinates": [ 6.974255, 51.310399 ] } },
{ "type": "Feature", "properties": { "Stations_id": "2134", "Stationsname": "Hennef", "Stationshoehe": 79.0, "Bundesland": "Nordrhein-Westfalen", "NiederschlagJahr": 837.2 }, "geometry": { "type": "Point", "coordinates": [ 7.25, 50.7667 ] } },
{ "type": "Feature", "properties": { "Stations_id": "2179", "Stationsname": "Herzogenrath", "Stationshoehe": 163.0, "Bundesland": "Nordrhein-Westfalen", "NiederschlagJahr": 843.7 }, "geometry": { "type": "Point", "coordinates": [ 6.07799, 50.85435 ] } },
{ "type": "Feature", "properties": { "Stations_id": "2379", "Stationsname": "Ibbenbüren", "Stationshoehe": 68.0, "Bundesland": "Nordrhein-Westfalen", "NiederschlagJahr": 827.8 }, "geometry": { "type": "Point", "coordinates": [ 7.7167, 52.2667 ] } },
{ "type": "Feature", "properties": { "Stations_id": "2591", "Stationsname": "Kirchlengern", "Stationshoehe": 55.0, "Bundesland": "Nordrhein-Westfalen", "NiederschlagJahr": 763.7 }, "geometry": { "type": "Point", "coordinates": [ 8.660893, 52.1967 ] } },
{ "type": "Feature", "properties": { "Stations_id": "2629", "Stationsname": "Kleve", "Stationshoehe": 46.0, "Bundesland": "Nordrhein-Westfalen", "NiederschlagJahr": 816.0 }, "geometry": { "type": "Point", "coordinates": [ 6.095381, 51.761242 ] } },
{ "type": "Feature", "properties": { "Stations_id": "2777", "Stationsname": "Kürten", "Stationshoehe": 230.0, "Bundesland": "Nordrhein-Westfalen", "NiederschlagJahr": 1321.1 }, "geometry": { "type": "Point", "coordinates": [ 7.263412, 51.054528 ] } },
{ "type": "Feature", "properties": { "Stations_id": "2868", "Stationsname": "Langschede", "Stationshoehe": 117.0, "Bundesland": "Nordrhein-Westfalen", "NiederschlagJahr": 920.7 }, "geometry": { "type": "Point", "coordinates": [ 7.7, 51.4833 ] } },
{ "type": "Feature", "properties": { "Stations_id": "2869", "Stationsname": "Lank", "Stationshoehe": 34.0, "Bundesland": "Nordrhein-Westfalen", "NiederschlagJahr": 796.2 }, "geometry": { "type": "Point", "coordinates": [ 6.7, 51.3 ] } },
{ "type": "Feature", "properties": { "Stations_id": "2936", "Stationsname": "Lemgo", "Stationshoehe": 137.0, "Bundesland": "Nordrhein-Westfalen", "NiederschlagJahr": 886.1 }, "geometry": { "type": "Point", "coordinates": [ 8.905261, 52.042322 ] } },
{ "type": "Feature", "properties": { "Stations_id": "3029", "Stationsname": "Lippstadt", "Stationshoehe": 73.0, "Bundesland": "Nordrhein-Westfalen", "NiederschlagJahr": 778.9 }, "geometry": { "type": "Point", "coordinates": [ 8.301252, 51.66836 ] } },
{ "type": "Feature", "properties": { "Stations_id": "3060", "Stationsname": "Loope", "Stationshoehe": 110.0, "Bundesland": "Nordrhein-Westfalen", "NiederschlagJahr": 1339.2 }, "geometry": { "type": "Point", "coordinates": [ 7.3667, 50.9667 ] } },
{ "type": "Feature", "properties": { "Stations_id": "3229", "Stationsname": "Meinerzhagen", "Stationshoehe": 431.0, "Bundesland": "Nordrhein-Westfalen", "NiederschlagJahr": 1464.3 }, "geometry": { "type": "Point", "coordinates": [ 7.642255, 51.104323 ] } },
{ "type": "Feature", "properties": { "Stations_id": "3239", "Stationsname": "Mellerhöfe", "Stationshoehe": 102.0, "Bundesland": "Nordrhein-Westfalen", "NiederschlagJahr": 595.8 }, "geometry": { "type": "Point", "coordinates": [ 6.7167, 50.8333 ] } },
{ "type": "Feature", "properties": { "Stations_id": "3264", "Stationsname": "Meschede", "Stationshoehe": 348.0, "Bundesland": "Nordrhein-Westfalen", "NiederschlagJahr": 1010.5 }, "geometry": { "type": "Point", "coordinates": [ 8.270926, 51.338453 ] } },
{ "type": "Feature", "properties": { "Stations_id": "3276", "Stationsname": "Mettmann", "Stationshoehe": 153.0, "Bundesland": "Nordrhein-Westfalen", "NiederschlagJahr": 1021.0 }, "geometry": { "type": "Point", "coordinates": [ 6.9667, 51.25 ] } },
{ "type": "Feature", "properties": { "Stations_id": "3320", "Stationsname": "Mönchengladbach", "Stationshoehe": 49.0, "Bundesland": "Nordrhein-Westfalen", "NiederschlagJahr": 760.3 }, "geometry": { "type": "Point", "coordinates": [ 6.449934, 51.197011 ] } },
{ "type": "Feature", "properties": { "Stations_id": "3337", "Stationsname": "Monschau", "Stationshoehe": 509.0, "Bundesland": "Nordrhein-Westfalen", "NiederschlagJahr": 1318.5 }, "geometry": { "type": "Point", "coordinates": [ 6.2333, 50.5667 ] } },
{ "type": "Feature", "properties": { "Stations_id": "3498", "Stationsname": "Neuenrade", "Stationshoehe": 339.0, "Bundesland": "Nordrhein-Westfalen", "NiederschlagJahr": 1290.7 }, "geometry": { "type": "Point", "coordinates": [ 7.7833, 51.2833 ] } },
{ "type": "Feature", "properties": { "Stations_id": "3753", "Stationsname": "Ochtrup", "Stationshoehe": 56.0, "Bundesland": "Nordrhein-Westfalen", "NiederschlagJahr": 815.9 }, "geometry": { "type": "Point", "coordinates": [ 7.178421, 52.204196 ] } },
{ "type": "Feature", "properties": { "Stations_id": "3858", "Stationsname": "Paderborn", "Stationshoehe": 105.0, "Bundesland": "Nordrhein-Westfalen", "NiederschlagJahr": 852.4 }, "geometry": { "type": "Point", "coordinates": [ 8.7333, 51.7333 ] } },
{ "type": "Feature", "properties": { "Stations_id": "4020", "Stationsname": "Pulheim", "Stationshoehe": 61.0, "Bundesland": "Nordrhein-Westfalen", "NiederschlagJahr": 779.9 }, "geometry": { "type": "Point", "coordinates": [ 6.791649, 50.992171 ] } },
{ "type": "Feature", "properties": { "Stations_id": "4051", "Stationsname": "Radevormwald", "Stationshoehe": 397.0, "Bundesland": "Nordrhein-Westfalen", "NiederschlagJahr": 1410.0 }, "geometry": { "type": "Point", "coordinates": [ 7.388593, 51.21591 ] } },
{ "type": "Feature", "properties": { "Stations_id": "4082", "Stationsname": "Ratingen", "Stationshoehe": 48.0, "Bundesland": "Nordrhein-Westfalen", "NiederschlagJahr": 851.1 }, "geometry": { "type": "Point", "coordinates": [ 6.85, 51.3 ] } },
{ "type": "Feature", "properties": { "Stations_id": "4100", "Stationsname": "Recklinghausen", "Stationshoehe": 109.0, "Bundesland": "Nordrhein-Westfalen", "NiederschlagJahr": 922.4 }, "geometry": { "type": "Point", "coordinates": [ 7.182022, 51.624263 ] } },
{ "type": "Feature", "properties": { "Stations_id": "4170", "Stationsname": "Rheinbach", "Stationshoehe": 180.0, "Bundesland": "Nordrhein-Westfalen", "NiederschlagJahr": 667.0 }, "geometry": { "type": "Point", "coordinates": [ 6.94496, 50.624435 ] } },
{ "type": "Feature", "properties": { "Stations_id": "4240", "Stationsname": "Roetgen", "Stationshoehe": 440.0, "Bundesland": "Nordrhein-Westfalen", "NiederschlagJahr": 1108.5 }, "geometry": { "type": "Point", "coordinates": [ 6.205771, 50.640675 ] } },
{ "type": "Feature", "properties": { "Stations_id": "4691", "Stationsname": "Siegburg", "Stationshoehe": 63.0, "Bundesland": "Nordrhein-Westfalen", "NiederschlagJahr": 824.8 }, "geometry": { "type": "Point", "coordinates": [ 7.204821, 50.799357 ] } },
{ "type": "Feature", "properties": { "Stations_id": "4810", "Stationsname": "Stadtlohn", "Stationshoehe": 60.0, "Bundesland": "Nordrhein-Westfalen", "NiederschlagJahr": 821.3 }, "geometry": { "type": "Point", "coordinates": [ 6.970647, 51.99702 ] } },
{ "type": "Feature", "properties": { "Stations_id": "4900", "Stationsname": "Straelen", "Stationshoehe": 45.0, "Bundesland": "Nordrhein-Westfalen", "NiederschlagJahr": 765.9 }, "geometry": { "type": "Point", "coordinates": [ 6.267161, 51.440583 ] } },
{ "type": "Feature", "properties": { "Stations_id": "4995", "Stationsname": "Tecklenburg", "Stationshoehe": 157.0, "Bundesland": "Nordrhein-Westfalen", "NiederschlagJahr": 852.0 }, "geometry": { "type": "Point", "coordinates": [ 7.8, 52.2167 ] } },
{ "type": "Feature", "properties": { "Stations_id": "5212", "Stationsname": "Versetalsperre", "Stationshoehe": 392.0, "Bundesland": "Nordrhein-Westfalen", "NiederschlagJahr": 1330.6 }, "geometry": { "type": "Point", "coordinates": [ 7.6833, 51.2 ] } },
{ "type": "Feature", "properties": { "Stations_id": "5213", "Stationsname": "Versmold", "Stationshoehe": 64.0, "Bundesland": "Nordrhein-Westfalen", "NiederschlagJahr": 819.5 }, "geometry": { "type": "Point", "coordinates": [ 8.160156, 52.010727 ] } },
{ "type": "Feature", "properties": { "Stations_id": "5278", "Stationsname": "Wahlerscheid", "Stationshoehe": 628.0, "Bundesland": "Nordrhein-Westfalen", "NiederschlagJahr": 1233.0 }, "geometry": { "type": "Point", "coordinates": [ 6.3333, 50.5 ] } },
{ "type": "Feature", "properties": { "Stations_id": "5351", "Stationsname": "Warendorf", "Stationshoehe": 53.0, "Bundesland": "Nordrhein-Westfalen", "NiederschlagJahr": 771.9 }, "geometry": { "type": "Point", "coordinates": [ 8.010261, 51.949898 ] } },
{ "type": "Feature", "properties": { "Stations_id": "5513", "Stationsname": "Westerkappeln", "Stationshoehe": 92.0, "Bundesland": "Nordrhein-Westfalen", "NiederschlagJahr": 837.3 }, "geometry": { "type": "Point", "coordinates": [ 7.868747, 52.290208 ] } },
{ "type": "Feature", "properties": { "Stations_id": "19125", "Stationsname": "Recke", "Stationshoehe": 43.6, "Bundesland": "Nordrhein-Westfalen", "NiederschlagJahr": 803.5 }, "geometry": { "type": "Point", "coordinates": [ 7.672482, 52.381467 ] } }
]
}
